{
    "nodes": [
        {
            "id": "Amsterdam",
            "lat": 52.2,
            "lng": 4.51
        },
        {
            "id": "Athens",
            "lat": 37.58,
            "lng": 23.42
        },
        {
            "id": "Barcelona",
            "lat": 41.22,
            "lng": 2.07
        },
        {
            "id": "Belgrade",
            "lat": 44.47,
            "lng": 20.25
        },
        {
            "id": "Berlin",
            "lat": 52.31,
            "lng": 13.21
        },
        {
            "id": "Bordeaux",
            "lat": 44.51,
            "lng": -0.35
        },
        {
            "id": "Brussels",
            "lat": 50.49,
            "lng": 4.2
        },
        {
            "id": "Budapest",
            "lat": 47.29,
            "lng": 19.02
        },
        {
            "id": "Copenhagen",
            "lat": 55.41,
            "lng": 12.32
        },
        {
            "id": "Dublin",
            "lat": 53.21,
            "lng": -6.15
        },
        {
            "id": "Frankfurt",
            "lat": 50.07,
            "lng": 8.38
        },
        {
            "id": "Glasgow",
            "lat": 55.51,
            "lng": -4.16
        },
        {
            "id": "Hamburg",
            "lat": 53.33,
            "lng": 10.0
        },
        {
            "id": "London",
            "lat": 51.3,
            "lng": -0.07
        },
        {
            "id": "Lyon",
            "lat": 45.43,
            "lng": 4.49
        },
        {
            "id": "Madrid",
            "lat": 40.25,
            "lng": -3.42
        },
        {
            "id": "Milan",
            "lat": 45.28,
            "lng": 9.11
        },
        {
            "id": "Munich",
            "lat": 48.07,
            "lng": 11.33
        },
        {
            "id": "Oslo",
            "lat": 59.54,
            "lng": 10.45
        },
        {
            "id": "Paris",
            "lat": 48.51,
            "lng": 2.2
        },
        {
            "id": "Prague",
            "lat": 50.04,
            "lng": 14.25
        },
        {
            "id": "Rome",
            "lat": 41.53,
            "lng": 12.29
        },
        {
            "id": "Stockholm",
            "lat": 59.19,
            "lng": 18.03
        },
        {
            "id": "Strasbourg",
            "lat": 48.35,
            "lng": 7.45
        },
        {
            "id": "Vienna",
            "lat": 48.12,
            "lng": 16.21
        },
        {
            "id": "Warsaw",
            "lat": 52.14,
            "lng": 20.59
        },
        {
            "id": "Zagreb",
            "lat": 45.48,
            "lng": 15.57
        },
        {
            "id": "Zurich",
            "lat": 47.22,
            "lng": 8.32
        }
    ],
    "amplifiers": [
        {
            "name": "York",
            "lat": 53.958332,
            "lng": -1.080278,
            "OSNR": 33.69,
            "distance": 57
        },
        {
            "name": "Brussels",
            "lat": 50.84667,
            "lng": 4.3525,
            "OSNR": 35.68,
            "distance": 49.7
        },
        {
            "name": "Cologne",
            "lat": 50.93753,
            "lng": 6.96028,
            "OSNR": 30.21,
            "distance": 78.95
        },
        {
            "name": "Innsbruck",
            "lat": 47.26266,
            "lng": 11.39454,
            "OSNR": 31.16,
            "distance": 74.61
        },
        {
            "name": "Nurnberg",
            "lat": 49.45421,
            "lng": 11.07752,
            "OSNR": 30.07,
            "distance": 79.63
        },
        {
            "name": "Berwick-upon-Tweed",
            "lat": 55.769244,
            "lng": -2.002647,
            "OSNR": 30.2,
            "distance": 77
        },
        {
            "name": "Linz",
            "lat": 48.30694,
            "lng": 14.28583,
            "OSNR": 30.45,
            "distance": 77.9
        },
        {
            "name": "Josvainiai",
            "lat": 55.24722,
            "lng": 23.83333,
            "OSNR": 29.92,
            "distance": 78.9
        },
        {
            "name": "Marielyst",
            "lat": 54.69778,
            "lng": 11.95667,
            "OSNR": 31.04,
            "distance": 75.84
        },
        {
            "name": "Waldkraiburg",
            "lat": 48.20865,
            "lng": 12.40164,
            "OSNR": 33.81,
            "distance": 61.31
        },
        {
            "name": "Cognac",
            "lat": 45.7,
            "lng": -0.33,
            "OSNR": 34.15,
            "distance": 59.38
        },
        {
            "name": "Antwerp ",
            "lat": 51.22111,
            "lng": 4.399708,
            "OSNR": 34.9,
            "distance": 56
        },
        {
            "name": "Berlin",
            "lat": 52.52437,
            "lng": 13.41053,
            "OSNR": 30.24,
            "distance": 78.87
        },
        {
            "name": "Karlsruhe",
            "lat": 49.00937,
            "lng": 8.40444,
            "OSNR": 35.85,
            "distance": 48.75
        },
        {
            "name": "Lugano",
            "lat": 46.003677,
            "lng": 8.951052,
            "OSNR": 33.45,
            "distance": 63.25
        },
        {
            "name": "Bar-le-Duc",
            "lat": 48.773605,
            "lng": 5.158238,
            "OSNR": 34.74,
            "distance": 56
        },
        {
            "name": "Osnabruck",
            "lat": 52.283333,
            "lng": 8.05,
            "OSNR": 31.32,
            "distance": 74
        },
        {
            "name": "Fraga",
            "lat": 41.52,
            "lng": 0.35,
            "OSNR": 33.41,
            "distance": 62.34
        },
        {
            "name": "Barcelona",
            "lat": 41.390205,
            "lng": 2.154007,
            "OSNR": 34.06,
            "distance": 59.76
        },
        {
            "name": "Bologna",
            "lat": 44.49381,
            "lng": 11.33875,
            "OSNR": 30.37,
            "distance": 78.27
        },
        {
            "name": "Czestochowa",
            "lat": 50.8,
            "lng": 19.117,
            "OSNR": 30.15,
            "distance": 78.02
        },
        {
            "name": "Annecy",
            "lat": 45.90878,
            "lng": 6.12565,
            "OSNR": 34.27,
            "distance": 58.7
        },
        {
            "name": "Veliki-Radinci",
            "lat": 45.05,
            "lng": 19.667,
            "OSNR": 30.21,
            "distance": 78.99
        },
        {
            "name": "Tours",
            "lat": 47.39361,
            "lng": 0.68917,
            "OSNR": 35.59,
            "distance": 50.58
        },
        {
            "name": "Zofingen",
            "lat": 47.28864,
            "lng": 7.95697,
            "OSNR": 37.68,
            "distance": 32.68
        },
        {
            "name": "Strasbourg",
            "lat": 48.573405,
            "lng": 7.752111,
            "OSNR": 34.3,
            "distance": 56.88
        },
        {
            "name": "Calais",
            "lat": 50.954468,
            "lng": 1.862801,
            "OSNR": 31.39,
            "distance": 73.54
        },
        {
            "name": "Jacobsdorf",
            "lat": 52.33333,
            "lng": 14.35,
            "OSNR": 33.62,
            "distance": 67.06
        },
        {
            "name": "Altdorf",
            "lat": 46.877893,
            "lng": 8.640549,
            "OSNR": 37.05,
            "distance": 39.2
        },
        {
            "name": "Ghent",
            "lat": 51.05361,
            "lng": 3.72528,
            "OSNR": 35.68,
            "distance": 50.3
        },
        {
            "name": "Lille",
            "lat": 50.6278,
            "lng": 3.0583,
            "OSNR": 29.99,
            "distance": 79.4
        },
        {
            "name": "Turku",
            "lat": 60.45167,
            "lng": 22.26694,
            "OSNR": 29.74,
            "distance": 79.64
        },
        {
            "name": "Roanne",
            "lat": 46.03624,
            "lng": 4.06802,
            "OSNR": 35.49,
            "distance": 51.28
        },
        {
            "name": "Rotterdam",
            "lat": 51.92442,
            "lng": 4.477733,
            "OSNR": 29.99,
            "distance": 79.8
        },
        {
            "name": "Edsbro",
            "lat": 59.883,
            "lng": 18.483,
            "OSNR": 31.76,
            "distance": 71.54
        },
        {
            "name": "Fulda",
            "lat": 50.55581,
            "lng": 9.68085,
            "OSNR": 36.99,
            "distance": 39.7
        },
        {
            "name": "Narbonne",
            "lat": 43.1836,
            "lng": 3.0042,
            "OSNR": 33.89,
            "distance": 60.43
        },
        {
            "name": "Airolo",
            "lat": 46.52855,
            "lng": 8.61189,
            "OSNR": 33.39,
            "distance": 63.56
        },
        {
            "name": "Altheim",
            "lat": 48.25,
            "lng": 13.23333,
            "OSNR": 30.36,
            "distance": 78.29
        },
        {
            "name": "London",
            "lat": 51.507351,
            "lng": -0.127758,
            "OSNR": 34.31,
            "distance": 53
        },
        {
            "name": "Nottingham",
            "lat": 52.950001,
            "lng": -1.15,
            "OSNR": 33.69,
            "distance": 59.8
        },
        {
            "name": "Sittensen",
            "lat": 53.283,
            "lng": 9.5,
            "OSNR": 35.45,
            "distance": 51.52
        },
        {
            "name": "Limburg an der Lahn",
            "lat": 50.37583,
            "lng": 8.06028,
            "OSNR": 29.99,
            "distance": 76
        },
        {
            "name": "Saint-Emilion",
            "lat": 44.8936,
            "lng": -0.1547,
            "OSNR": 36.93,
            "distance": 40.32
        },
        {
            "name": "Ingolstadt",
            "lat": 48.76684,
            "lng": 11.42575,
            "OSNR": 30.07,
            "distance": 79.63
        },
        {
            "name": "Vamosmikola",
            "lat": 47.97639,
            "lng": 18.78333,
            "OSNR": 29.67,
            "distance": 79.92
        },
        {
            "name": "Thiva",
            "lat": 38.32258,
            "lng": 23.32043,
            "OSNR": 31.67,
            "distance": 72.18
        },
        {
            "name": "Jihlava",
            "lat": 49.3961,
            "lng": 15.59124,
            "OSNR": 33.31,
            "distance": 64
        },
        {
            "name": "Guadalajara",
            "lat": 40.633713,
            "lng": -3.167394,
            "OSNR": 33.94,
            "distance": 60.6
        },
        {
            "name": "Piacenza",
            "lat": 45.052621,
            "lng": 9.692984,
            "OSNR": 33.97,
            "distance": 60.44
        },
        {
            "name": "Pamplona",
            "lat": 42.817,
            "lng": -1.65,
            "OSNR": 35.94,
            "distance": 50.24
        },
        {
            "name": "Benevento",
            "lat": 41.133,
            "lng": 14.783,
            "OSNR": 31.61,
            "distance": 72.49
        },
        {
            "name": "Wiener Neustadt",
            "lat": 47.80889,
            "lng": 16.2325,
            "OSNR": 36.05,
            "distance": 47.37
        },
        {
            "name": "Helsinki",
            "lat": 60.17083,
            "lng": 24.9375,
            "OSNR": 30.14,
            "distance": 78.05
        },
        {
            "name": "Copenhagen",
            "lat": 55.6761,
            "lng": 12.56834,
            "OSNR": 36.27,
            "distance": 54.93
        },
        {
            "name": "Samoljica",
            "lat": 42.38194,
            "lng": 21.74472,
            "OSNR": 32.05,
            "distance": 70.35
        },
        {
            "name": "Brescia",
            "lat": 45.53558,
            "lng": 10.21472,
            "OSNR": 33.84,
            "distance": 61.15
        },
        {
            "name": "Wahlsdorf",
            "lat": 51.9562,
            "lng": 13.3278,
            "OSNR": 32.4,
            "distance": 72.06
        },
        {
            "name": "Rabbalshede",
            "lat": 58.617,
            "lng": 11.467,
            "OSNR": 31.93,
            "distance": 72.26
        },
        {
            "name": "Paris",
            "lat": 48.85667,
            "lng": 2.35222,
            "OSNR": 33.95,
            "distance": 60.5
        },
        {
            "name": "Tarare",
            "lat": 45.89761,
            "lng": 4.43272,
            "OSNR": 33.9,
            "distance": 60.78
        },
        {
            "name": "Bruges",
            "lat": 51.209348,
            "lng": 3.2247,
            "OSNR": 29.99,
            "distance": 79.6
        },
        {
            "name": "Belgrade",
            "lat": 44.81778,
            "lng": 20.45694,
            "OSNR": 32.79,
            "distance": 66.66
        },
        {
            "name": "Lachowo",
            "lat": 53.467,
            "lng": 22.017,
            "OSNR": 30.47,
            "distance": 76.73
        },
        {
            "name": "Kumlinge",
            "lat": 60.2583,
            "lng": 20.7783,
            "OSNR": 29.73,
            "distance": 79.67
        },
        {
            "name": "Moulins",
            "lat": 46.56667,
            "lng": 3.33333,
            "OSNR": 35.42,
            "distance": 51.73
        },
        {
            "name": "Skierniewice",
            "lat": 51.95278,
            "lng": 20.14167,
            "OSNR": 32.07,
            "distance": 70.33
        },
        {
            "name": "Kufstein",
            "lat": 47.58333,
            "lng": 12.16667,
            "OSNR": 30.14,
            "distance": 79.31
        },
        {
            "name": "Tallinn",
            "lat": 59.43722,
            "lng": 24.74528,
            "OSNR": 30.45,
            "distance": 76.78
        },
        {
            "name": "Riga",
            "lat": 56.94889,
            "lng": 24.10639,
            "OSNR": 32.15,
            "distance": 70
        },
        {
            "name": "Aachen",
            "lat": 50.77535,
            "lng": 6.08389,
            "OSNR": 32.13,
            "distance": 70
        },
        {
            "name": "Mysen",
            "lat": 59.55354,
            "lng": 11.32578,
            "OSNR": 36.25,
            "distance": 55
        },
        {
            "name": "Antwerp",
            "lat": 51.21778,
            "lng": 4.40028,
            "OSNR": 30.43,
            "distance": 78
        },
        {
            "name": "Ivankovo",
            "lat": 45.283,
            "lng": 18.683,
            "OSNR": 30.15,
            "distance": 79.27
        },
        {
            "name": "Melk",
            "lat": 48.233,
            "lng": 15.35,
            "OSNR": 30.62,
            "distance": 77.1
        },
        {
            "name": "Budapest",
            "lat": 47.497913,
            "lng": 19.040236,
            "OSNR": 30.4,
            "distance": 78.12
        },
        {
            "name": "Chatellerault",
            "lat": 46.8178,
            "lng": 0.5461,
            "OSNR": 32.08,
            "distance": 70.23
        },
        {
            "name": "Aschaffenburg",
            "lat": 49.97546,
            "lng": 9.15056,
            "OSNR": 37.13,
            "distance": 38.4
        },
        {
            "name": "Ekkara",
            "lat": 39.15,
            "lng": 22.2,
            "OSNR": 30.36,
            "distance": 78.28
        },
        {
            "name": "Hamburg",
            "lat": 53.551086,
            "lng": 9.993682,
            "OSNR": 36.4,
            "distance": 44.68
        },
        {
            "name": "Gornja Trnava",
            "lat": 43.28306,
            "lng": 21.52528,
            "OSNR": 31.11,
            "distance": 74.83
        },
        {
            "name": "Leicester",
            "lat": 52.633331,
            "lng": -1.133333,
            "OSNR": 35.68,
            "distance": 50.2
        },
        {
            "name": "Pinkafeld",
            "lat": 47.367,
            "lng": 16.117,
            "OSNR": 33.79,
            "distance": 61.4
        },
        {
            "name": "Raczki",
            "lat": 53.983,
            "lng": 22.783,
            "OSNR": 30.54,
            "distance": 76.44
        },
        {
            "name": "Lannafors",
            "lat": 59.28333,
            "lng": 14.91667,
            "OSNR": 34.5,
            "distance": 62
        },
        {
            "name": "Graz",
            "lat": 47.07083,
            "lng": 15.43861,
            "OSNR": 34.32,
            "distance": 58.46
        },
        {
            "name": "Tuscania",
            "lat": 42.417374,
            "lng": 11.878281,
            "OSNR": 31.51,
            "distance": 72.97
        },
        {
            "name": "Riesa",
            "lat": 51.30777,
            "lng": 13.29168,
            "OSNR": 31.18,
            "distance": 77.03
        },
        {
            "name": "Toul",
            "lat": 48.68075,
            "lng": 5.89115,
            "OSNR": 34.91,
            "distance": 55
        },
        {
            "name": "Monzon",
            "lat": 41.91,
            "lng": 0.19,
            "OSNR": 34.08,
            "distance": 59.67
        },
        {
            "name": "Leuven ",
            "lat": 50.87983,
            "lng": 4.70004,
            "OSNR": 32.13,
            "distance": 67
        },
        {
            "name": "Wrzesnia",
            "lat": 52.32512,
            "lng": 17.56519,
            "OSNR": 32.57,
            "distance": 71.36
        },
        {
            "name": "Montpellier",
            "lat": 43.6119,
            "lng": 3.8772,
            "OSNR": 33.94,
            "distance": 60.23
        },
        {
            "name": "Rome",
            "lat": 41.902782,
            "lng": 12.496366,
            "OSNR": 30.18,
            "distance": 79.1
        },
        {
            "name": "Sarrebourg",
            "lat": 48.73558,
            "lng": 7.0572,
            "OSNR": 33.94,
            "distance": 60.52
        },
        {
            "name": "Koblenz",
            "lat": 50.36361,
            "lng": 7.56917,
            "OSNR": 36.93,
            "distance": 44
        },
        {
            "name": "Piotrkow-Trybunalski",
            "lat": 51.40517,
            "lng": 19.70302,
            "OSNR": 32.58,
            "distance": 68.29
        },
        {
            "name": "Jessen",
            "lat": 51.79337,
            "lng": 12.95762,
            "OSNR": 33.19,
            "distance": 64.61
        },
        {
            "name": "Poitiers",
            "lat": 46.58,
            "lng": 0.34,
            "OSNR": 33.83,
            "distance": 61.17
        },
        {
            "name": "Powiercie",
            "lat": 52.183,
            "lng": 18.7,
            "OSNR": 31.45,
            "distance": 75.91
        },
        {
            "name": "Irun",
            "lat": 43.33904,
            "lng": -1.78938,
            "OSNR": 29.82,
            "distance": 78.74
        },
        {
            "name": "Zaragoza",
            "lat": 41.65,
            "lng": -0.883,
            "OSNR": 30.42,
            "distance": 76.32
        },
        {
            "name": "Luton",
            "lat": 51.87967,
            "lng": -0.41748,
            "OSNR": 29.99,
            "distance": 80.1
        },
        {
            "name": "Nyon",
            "lat": 46.38318,
            "lng": 6.23955,
            "OSNR": 33.81,
            "distance": 61.3
        },
        {
            "name": "Canterbury",
            "lat": 51.28,
            "lng": 1.08,
            "OSNR": 30.27,
            "distance": 78.7
        },
        {
            "name": "Grosseto",
            "lat": 42.766666,
            "lng": 11.1,
            "OSNR": 33.25,
            "distance": 64.31
        },
        {
            "name": "Bitola",
            "lat": 41.029678,
            "lng": 21.329216,
            "OSNR": 30.22,
            "distance": 78.96
        },
        {
            "name": "Chalons-en-Champagne",
            "lat": 48.9575,
            "lng": 4.365,
            "OSNR": 30.2,
            "distance": 79
        },
        {
            "name": "Frankfurt am Main",
            "lat": 50.11092,
            "lng": 8.68213,
            "OSNR": 36.81,
            "distance": 41.32
        },
        {
            "name": "Bratislava",
            "lat": 48.1486,
            "lng": 17.10775,
            "OSNR": 36.55,
            "distance": 54.88
        },
        {
            "name": "Gelnhausen",
            "lat": 50.2,
            "lng": 9.167,
            "OSNR": 34.76,
            "distance": 55.84
        },
        {
            "name": "Angouleme",
            "lat": 45.65,
            "lng": 0.16,
            "OSNR": 33.71,
            "distance": 61.84
        },
        {
            "name": "Oslo",
            "lat": 59.91273,
            "lng": 10.74609,
            "OSNR": 36.9,
            "distance": 52.4
        },
        {
            "name": "Saalfeld",
            "lat": 50.64826,
            "lng": 11.36536,
            "OSNR": 32.94,
            "distance": 65.89
        },
        {
            "name": "Sarpsborg",
            "lat": 59.28583,
            "lng": 11.11194,
            "OSNR": 30.49,
            "distance": 78.05
        },
        {
            "name": "Meaux",
            "lat": 48.9603,
            "lng": 2.8883,
            "OSNR": 36.85,
            "distance": 41
        },
        {
            "name": "Gyor",
            "lat": 47.68746,
            "lng": 17.6504,
            "OSNR": 31.87,
            "distance": 74.23
        },
        {
            "name": "Rotenburg",
            "lat": 53.10694,
            "lng": 9.39694,
            "OSNR": 35.23,
            "distance": 52.93
        },
        {
            "name": "Halliste",
            "lat": 58.16444,
            "lng": 25.43972,
            "OSNR": 32.22,
            "distance": 69.73
        },
        {
            "name": "Aranda de Duero",
            "lat": 41.683,
            "lng": -3.683,
            "OSNR": 29.83,
            "distance": 78.89
        },
        {
            "name": "Maidstone",
            "lat": 51.272644,
            "lng": 0.52527,
            "OSNR": 36.96,
            "distance": 39.2
        },
        {
            "name": "Thirsk",
            "lat": 54.23298,
            "lng": -1.34411,
            "OSNR": 30.08,
            "distance": 78
        },
        {
            "name": "Vlasim",
            "lat": 49.70632,
            "lng": 14.89881,
            "OSNR": 34.03,
            "distance": 60.07
        },
        {
            "name": "Enkoping",
            "lat": 59.63556,
            "lng": 17.07639,
            "OSNR": 30.68,
            "distance": 77.28
        },
        {
            "name": "Bad Hersfeld",
            "lat": 50.86833,
            "lng": 9.7075,
            "OSNR": 36.06,
            "distance": 47.32
        },
        {
            "name": "Milan",
            "lat": 45.46427,
            "lng": 9.18951,
            "OSNR": 30.14,
            "distance": 79.29
        },
        {
            "name": "Saint-Dizier",
            "lat": 48.638302,
            "lng": 4.9497,
            "OSNR": 33.69,
            "distance": 62
        },
        {
            "name": "Frosinone",
            "lat": 41.633,
            "lng": 13.35,
            "OSNR": 33.97,
            "distance": 60.44
        },
        {
            "name": "Kikinda",
            "lat": 45.833,
            "lng": 20.45,
            "OSNR": 35.56,
            "distance": 50.77
        },
        {
            "name": "Venafro",
            "lat": 41.48444,
            "lng": 14.04583,
            "OSNR": 33.8,
            "distance": 61.33
        },
        {
            "name": "Eisenberg",
            "lat": 50.9686,
            "lng": 11.90207,
            "OSNR": 35.78,
            "distance": 49.27
        },
        {
            "name": "Eidapere",
            "lat": 58.75139,
            "lng": 24.94278,
            "OSNR": 31.77,
            "distance": 71.5
        },
        {
            "name": "Vitoria-Gasteiz",
            "lat": 42.85,
            "lng": -2.683,
            "OSNR": 29.76,
            "distance": 79.14
        },
        {
            "name": "Luneville",
            "lat": 48.592237,
            "lng": 6.492339,
            "OSNR": 37.49,
            "distance": 35
        },
        {
            "name": "Segovia",
            "lat": 40.94806,
            "lng": -4.11833,
            "OSNR": 32.22,
            "distance": 71.12
        },
        {
            "name": "Mellbystrand",
            "lat": 56.517,
            "lng": 12.933,
            "OSNR": 32.46,
            "distance": 70.17
        },
        {
            "name": "Apeldoorn",
            "lat": 52.217,
            "lng": 5.967,
            "OSNR": 31.29,
            "distance": 67
        },
        {
            "name": "Langenthal",
            "lat": 47.21526,
            "lng": 7.79607,
            "OSNR": 33.99,
            "distance": 60.32
        },
        {
            "name": "Colmar",
            "lat": 48.081699,
            "lng": 7.3556,
            "OSNR": 33.74,
            "distance": 61.28
        },
        {
            "name": "Lyon",
            "lat": 45.76,
            "lng": 4.84,
            "OSNR": 38.2,
            "distance": 41.2
        },
        {
            "name": "Buk",
            "lat": 52.35532,
            "lng": 16.51958,
            "OSNR": 31.18,
            "distance": 77.04
        },
        {
            "name": "Amsterdam",
            "lat": 52.377956,
            "lng": 4.89707,
            "OSNR": 31.17,
            "distance": 70.3
        },
        {
            "name": "Carpegna",
            "lat": 43.7811,
            "lng": 12.33543,
            "OSNR": 31.16,
            "distance": 74.6
        },
        {
            "name": "Niort",
            "lat": 46.3258,
            "lng": -0.4606,
            "OSNR": 32.03,
            "distance": 70.45
        },
        {
            "name": "Altamura",
            "lat": 40.82539,
            "lng": 16.55279,
            "OSNR": 30.55,
            "distance": 77.42
        },
        {
            "name": "Edinburgh",
            "lat": 55.953346,
            "lng": -3.188375,
            "OSNR": 30.71,
            "distance": 75
        },
        {
            "name": "Utrecht",
            "lat": 52.09083,
            "lng": 5.12167,
            "OSNR": 38.93,
            "distance": 35
        },
        {
            "name": "Helsingborg",
            "lat": 56.04673,
            "lng": 12.69437,
            "OSNR": 37.22,
            "distance": 51.1
        },
        {
            "name": "Lecce",
            "lat": 40.35,
            "lng": 18.167,
            "OSNR": 31.43,
            "distance": 73.32
        },
        {
            "name": "Blois",
            "lat": 47.5939,
            "lng": 1.3281,
            "OSNR": 33.98,
            "distance": 60.34
        },
        {
            "name": "Digoin",
            "lat": 46.48124,
            "lng": 3.97946,
            "OSNR": 35.6,
            "distance": 50.52
        },
        {
            "name": "Valskog",
            "lat": 59.43745,
            "lng": 15.974,
            "OSNR": 30.17,
            "distance": 79.3
        },
        {
            "name": "Karlstad",
            "lat": 59.37833,
            "lng": 13.50417,
            "OSNR": 30.36,
            "distance": 78.54
        },
        {
            "name": "Friburgo",
            "lat": 46.79665,
            "lng": 7.15307,
            "OSNR": 33.8,
            "distance": 61.36
        },
        {
            "name": "Amfikleia",
            "lat": 38.633,
            "lng": 22.583,
            "OSNR": 34.04,
            "distance": 60
        },
        {
            "name": "Brandenburg-an-der-Havel",
            "lat": 52.41667,
            "lng": 12.53333,
            "OSNR": 34.13,
            "distance": 59.54
        },
        {
            "name": "Ginebra ",
            "lat": 46.20439,
            "lng": 6.14316,
            "OSNR": 33.93,
            "distance": 60.63
        },
        {
            "name": "Zrenjanin",
            "lat": 45.38333,
            "lng": 20.38944,
            "OSNR": 33.54,
            "distance": 62.76
        },
        {
            "name": "Teplice",
            "lat": 50.64444,
            "lng": 13.83194,
            "OSNR": 31.78,
            "distance": 74.6
        },
        {
            "name": "Mokolai",
            "lat": 54.57323,
            "lng": 23.34002,
            "OSNR": 31.14,
            "distance": 74.05
        },
        {
            "name": "Viterbo",
            "lat": 42.417,
            "lng": 12.1,
            "OSNR": 32.65,
            "distance": 67.51
        },
        {
            "name": "Valmiera",
            "lat": 57.53847,
            "lng": 25.42636,
            "OSNR": 30.07,
            "distance": 78.33
        },
        {
            "name": "Pozega",
            "lat": 45.33306,
            "lng": 17.67361,
            "OSNR": 31.67,
            "distance": 72.18
        },
        {
            "name": "Verona",
            "lat": 45.4299,
            "lng": 10.98444,
            "OSNR": 35.47,
            "distance": 51.39
        },
        {
            "name": "Alsasua",
            "lat": 42.89528,
            "lng": -2.16889,
            "OSNR": 35.67,
            "distance": 51.31
        },
        {
            "name": "Nevers",
            "lat": 46.98956,
            "lng": 3.159,
            "OSNR": 32.05,
            "distance": 70.34
        },
        {
            "name": "Bayonne",
            "lat": 43.490002,
            "lng": -1.48,
            "OSNR": 37.93,
            "distance": 42.3
        },
        {
            "name": "Newcastle upon Tyne",
            "lat": 54.973847,
            "lng": -1.613157,
            "OSNR": 35.68,
            "distance": 50
        },
        {
            "name": "Cluses",
            "lat": 46.06251,
            "lng": 6.57497,
            "OSNR": 34.07,
            "distance": 59.83
        },
        {
            "name": "Lichtenfels",
            "lat": 50.14567,
            "lng": 11.05928,
            "OSNR": 31.65,
            "distance": 72.27
        },
        {
            "name": "Elatia",
            "lat": 37.867,
            "lng": 20.667,
            "OSNR": 30.75,
            "distance": 76.53
        },
        {
            "name": "Munich",
            "lat": 48.13513,
            "lng": 11.58198,
            "OSNR": 31.98,
            "distance": 70.68
        },
        {
            "name": "Stockholm",
            "lat": 59.3293,
            "lng": 18.0686,
            "OSNR": 32.81,
            "distance": 67.34
        },
        {
            "name": "Nimes",
            "lat": 43.83833,
            "lng": 4.35972,
            "OSNR": 35.81,
            "distance": 50.75
        },
        {
            "name": "Hengelo",
            "lat": 52.2523195,
            "lng": 6.7955256,
            "OSNR": 33.74,
            "distance": 69
        },
        {
            "name": "Maribor",
            "lat": 46.5575,
            "lng": 15.64556,
            "OSNR": 30.8,
            "distance": 76.29
        },
        {
            "name": "Rijeka",
            "lat": 45.32898,
            "lng": 14.45766,
            "OSNR": 31.46,
            "distance": 73.18
        },
        {
            "name": "Heidelberg",
            "lat": 49.40768,
            "lng": 8.69079,
            "OSNR": 30.37,
            "distance": 78.26
        },
        {
            "name": "Zagreb",
            "lat": 45.81306,
            "lng": 15.9775,
            "OSNR": 34.32,
            "distance": 58.45
        },
        {
            "name": "Arjang",
            "lat": 59.383,
            "lng": 12.133,
            "OSNR": 30.49,
            "distance": 78.04
        },
        {
            "name": "Uelzen",
            "lat": 52.96572,
            "lng": 10.56111,
            "OSNR": 31.23,
            "distance": 74.3
        },
        {
            "name": "Sammatti",
            "lat": 60.32083,
            "lng": 23.82083,
            "OSNR": 33.74,
            "distance": 63.62
        },
        {
            "name": "Villa Castelli",
            "lat": 40.5856,
            "lng": 17.4755,
            "OSNR": 30.32,
            "distance": 78.5
        },
        {
            "name": "Burgos",
            "lat": 42.35,
            "lng": -3.70667,
            "OSNR": 29.94,
            "distance": 78.45
        },
        {
            "name": "Perugia",
            "lat": 43.11222,
            "lng": 12.38889,
            "OSNR": 30.33,
            "distance": 78.43
        },
        {
            "name": "Sheffield",
            "lat": 53.383331,
            "lng": -1.466667,
            "OSNR": 32.43,
            "distance": 69
        },
        {
            "name": "Rovereto",
            "lat": 45.88204,
            "lng": 11.03647,
            "OSNR": 32.0,
            "distance": 70.61
        },
        {
            "name": "Parma",
            "lat": 44.801472,
            "lng": 10.328,
            "OSNR": 34.53,
            "distance": 57.21
        },
        {
            "name": "Kalambaka",
            "lat": 39.708056,
            "lng": 21.628355,
            "OSNR": 30.39,
            "distance": 78.15
        },
        {
            "name": "Warsaw",
            "lat": 52.23705,
            "lng": 21.01753,
            "OSNR": 30.52,
            "distance": 79.7
        },
        {
            "name": "Gerona ",
            "lat": 41.98444,
            "lng": 2.82111,
            "OSNR": 32.13,
            "distance": 71.49
        },
        {
            "name": "Lagow",
            "lat": 52.333,
            "lng": 15.3,
            "OSNR": 34.29,
            "distance": 64.29
        },
        {
            "name": "Lindow",
            "lat": 52.967,
            "lng": 12.983,
            "OSNR": 33.4,
            "distance": 66.81
        },
        {
            "name": "Kitzingen",
            "lat": 49.74028,
            "lng": 10.15,
            "OSNR": 30.8,
            "distance": 76.29
        },
        {
            "name": "Montelimar",
            "lat": 44.5581,
            "lng": 4.7508,
            "OSNR": 34.13,
            "distance": 59.48
        },
        {
            "name": "Trikala",
            "lat": 39.55,
            "lng": 21.767,
            "OSNR": 30.1,
            "distance": 79.46
        },
        {
            "name": "Eckero",
            "lat": 60.217,
            "lng": 19.55,
            "OSNR": 33.31,
            "distance": 65.34
        },
        {
            "name": "Montargis",
            "lat": 47.99729,
            "lng": 2.73629,
            "OSNR": 35.62,
            "distance": 50.35
        },
        {
            "name": "Cervera",
            "lat": 41.66556,
            "lng": 1.27139,
            "OSNR": 33.86,
            "distance": 60.56
        },
        {
            "name": "Leipzig",
            "lat": 51.33962,
            "lng": 12.37129,
            "OSNR": 34.87,
            "distance": 55.21
        },
        {
            "name": "Zlakow-Borowy",
            "lat": 52.233,
            "lng": 19.833,
            "OSNR": 31.07,
            "distance": 77.46
        },
        {
            "name": "Veles",
            "lat": 41.72,
            "lng": 21.79333,
            "OSNR": 31.47,
            "distance": 73.13
        },
        {
            "name": "Siena",
            "lat": 43.31822,
            "lng": 11.33064,
            "OSNR": 35.42,
            "distance": 51.71
        },
        {
            "name": "Handlova",
            "lat": 48.72722,
            "lng": 18.76194,
            "OSNR": 29.94,
            "distance": 78.83
        },
        {
            "name": "Krusevac",
            "lat": 43.58056,
            "lng": 21.33056,
            "OSNR": 30.02,
            "distance": 79.85
        },
        {
            "name": "Lleida",
            "lat": 41.61667,
            "lng": 0.63333,
            "OSNR": 33.72,
            "distance": 61.12
        },
        {
            "name": "Boras",
            "lat": 57.72111,
            "lng": 12.94028,
            "OSNR": 33.47,
            "distance": 66.11
        },
        {
            "name": "Ghent ",
            "lat": 51.049999,
            "lng": 3.733333,
            "OSNR": 36.56,
            "distance": 44
        },
        {
            "name": "Pravutina",
            "lat": 45.6,
            "lng": 15.3,
            "OSNR": 31.65,
            "distance": 72.27
        },
        {
            "name": "Figueres",
            "lat": 42.26667,
            "lng": 2.965,
            "OSNR": 32.33,
            "distance": 70.68
        },
        {
            "name": "Tychy",
            "lat": 50.12361,
            "lng": 18.98667,
            "OSNR": 30.23,
            "distance": 77.67
        },
        {
            "name": "Fontainebleau",
            "lat": 48.4097,
            "lng": 2.7025,
            "OSNR": 35.7,
            "distance": 49.85
        },
        {
            "name": "Prague",
            "lat": 50.0875,
            "lng": 14.42139,
            "OSNR": 34.98,
            "distance": 54.51
        },
        {
            "name": "Medinaceli",
            "lat": 41.17167,
            "lng": -2.43472,
            "OSNR": 29.81,
            "distance": 78.95
        },
        {
            "name": "Bezkov",
            "lat": 48.87139,
            "lng": 15.95139,
            "OSNR": 30.0,
            "distance": 79.94
        },
        {
            "name": "Panevezys",
            "lat": 55.73333,
            "lng": 24.35,
            "OSNR": 32.78,
            "distance": 67.49
        },
        {
            "name": "Basel",
            "lat": 47.566667,
            "lng": 7.6,
            "OSNR": 30.86,
            "distance": 74.5
        },
        {
            "name": "Umag",
            "lat": 45.433,
            "lng": 13.517,
            "OSNR": 32.71,
            "distance": 67.08
        },
        {
            "name": "Gien",
            "lat": 47.69332,
            "lng": 2.63094,
            "OSNR": 36.81,
            "distance": 41.34
        },
        {
            "name": "Liege ",
            "lat": 50.63333,
            "lng": 5.56667,
            "OSNR": 36.93,
            "distance": 40
        },
        {
            "name": "Rovigo",
            "lat": 45.07028,
            "lng": 11.79056,
            "OSNR": 30.23,
            "distance": 78.88
        },
        {
            "name": "Zurich",
            "lat": 47.37444,
            "lng": 8.54111,
            "OSNR": 33.71,
            "distance": 61.83
        },
        {
            "name": "Firenze",
            "lat": 43.7698712,
            "lng": 11.2555757,
            "OSNR": 30.03,
            "distance": 79.8
        },
        {
            "name": "Orleans",
            "lat": 47.9025,
            "lng": 1.909,
            "OSNR": 34.1,
            "distance": 59.68
        },
        {
            "name": "Diepholz",
            "lat": 52.60722,
            "lng": 8.37111,
            "OSNR": 33.96,
            "distance": 60.47
        },
        {
            "name": "Toulouse",
            "lat": 43.6045,
            "lng": 1.444,
            "OSNR": 29.95,
            "distance": 78.42
        },
        {
            "name": "Bordeaux",
            "lat": 44.836151,
            "lng": -0.580816,
            "OSNR": 29.71,
            "distance": 79.35
        },
        {
            "name": "Dunkirk",
            "lat": 51.05003,
            "lng": 2.397766,
            "OSNR": 35.68,
            "distance": 50.8
        },
        {
            "name": "Melfi",
            "lat": 40.99571,
            "lng": 15.65578,
            "OSNR": 31.06,
            "distance": 75.09
        },
        {
            "name": "Venezia",
            "lat": 45.4375,
            "lng": 12.33583,
            "OSNR": 32.34,
            "distance": 68.91
        },
        {
            "name": "Bauska",
            "lat": 56.40833,
            "lng": 24.19306,
            "OSNR": 32.79,
            "distance": 67.46
        },
        {
            "name": "Lausana ",
            "lat": 46.51996,
            "lng": 6.6336,
            "OSNR": 30.22,
            "distance": 78.94
        },
        {
            "name": "Atran",
            "lat": 57.117,
            "lng": 12.95,
            "OSNR": 33.2,
            "distance": 67.2
        },
        {
            "name": "Ioannina",
            "lat": 39.66361,
            "lng": 20.85222,
            "OSNR": 33.18,
            "distance": 64.69
        },
        {
            "name": "Chateau-Thierry",
            "lat": 49.04636,
            "lng": 3.40304,
            "OSNR": 31.49,
            "distance": 73
        },
        {
            "name": "Domokos",
            "lat": 39.12722,
            "lng": 22.30028,
            "OSNR": 32.92,
            "distance": 65.99
        },
        {
            "name": "Kassel",
            "lat": 51.31545,
            "lng": 9.49241,
            "OSNR": 36.97,
            "distance": 39.96
        },
        {
            "name": "Hildesheim",
            "lat": 52.15,
            "lng": 9.95,
            "OSNR": 31.27,
            "distance": 74.08
        },
        {
            "name": "Valence",
            "lat": 44.9333,
            "lng": 4.8917,
            "OSNR": 35.65,
            "distance": 51.39
        },
        {
            "name": "Gardelegen",
            "lat": 52.52639,
            "lng": 11.3925,
            "OSNR": 30.14,
            "distance": 79.32
        },
        {
            "name": "Szeged",
            "lat": 46.255,
            "lng": 20.145,
            "OSNR": 35.09,
            "distance": 53.81
        },
        {
            "name": "Nordhorn",
            "lat": 52.43194,
            "lng": 7.06778,
            "OSNR": 36.84,
            "distance": 43
        },
        {
            "name": "Kecskemet",
            "lat": 46.9075,
            "lng": 19.69167,
            "OSNR": 30.14,
            "distance": 79.31
        },
        {
            "name": "Rostock",
            "lat": 54.083,
            "lng": 12.133,
            "OSNR": 34.11,
            "distance": 63.57
        },
        {
            "name": "Lilla Edet",
            "lat": 58.133,
            "lng": 12.133,
            "OSNR": 31.69,
            "distance": 73.23
        },
        {
            "name": "Waren",
            "lat": 53.517,
            "lng": 12.683,
            "OSNR": 31.81,
            "distance": 72.74
        },
        {
            "name": "Cosne-Cours-sur-Loire",
            "lat": 47.41101,
            "lng": 2.92528,
            "OSNR": 35.51,
            "distance": 51.11
        },
        {
            "name": "Kutina",
            "lat": 45.48197,
            "lng": 16.7785,
            "OSNR": 31.69,
            "distance": 72.11
        },
        {
            "name": "Livera",
            "lat": 40.4089083,
            "lng": 21.695,
            "OSNR": 30.78,
            "distance": 76.37
        },
        {
            "name": "Nienburg",
            "lat": 52.64111,
            "lng": 9.20694,
            "OSNR": 34.76,
            "distance": 55.84
        },
        {
            "name": "Gottingen",
            "lat": 51.53389,
            "lng": 9.93556,
            "OSNR": 32.29,
            "distance": 69.18
        },
        {
            "name": "Leskovac",
            "lat": 43.0,
            "lng": 21.95,
            "OSNR": 30.34,
            "distance": 78.39
        },
        {
            "name": "Vienna (France)",
            "lat": 45.5242,
            "lng": 4.8781,
            "OSNR": 30.46,
            "distance": 79.94
        },
        {
            "name": "Cadca",
            "lat": 49.43583,
            "lng": 18.79222,
            "OSNR": 30.4,
            "distance": 77
        },
        {
            "name": "Rozan",
            "lat": 52.89028,
            "lng": 21.39583,
            "OSNR": 30.6,
            "distance": 76.19
        },
        {
            "name": "Bolzano",
            "lat": 46.49067,
            "lng": 11.33982,
            "OSNR": 30.16,
            "distance": 79.2
        },
        {
            "name": "Athens",
            "lat": 37.98381,
            "lng": 23.72754,
            "OSNR": 35.41,
            "distance": 51.8
        },
        {
            "name": "Tarazona",
            "lat": 41.90444,
            "lng": -1.72417,
            "OSNR": 29.78,
            "distance": 79.1
        },
        {
            "name": "Libohove",
            "lat": 40.03132,
            "lng": 20.26237,
            "OSNR": 31.14,
            "distance": 74.69
        },
        {
            "name": "Perpignan",
            "lat": 42.6986,
            "lng": 2.8956,
            "OSNR": 33.69,
            "distance": 61.24
        },
        {
            "name": "Bremen",
            "lat": 53.07583,
            "lng": 8.80722,
            "OSNR": 36.93,
            "distance": 40.3
        },
        {
            "name": "Haslev",
            "lat": 55.32346,
            "lng": 11.96389,
            "OSNR": 34.21,
            "distance": 63.16
        },
        {
            "name": "Nancy",
            "lat": 48.692055,
            "lng": 6.184417,
            "OSNR": 30.64,
            "distance": 77
        },
        {
            "name": "Ravenna",
            "lat": 44.41611,
            "lng": 12.20167,
            "OSNR": 31.91,
            "distance": 71.03
        },
        {
            "name": "Orikum",
            "lat": 40.333,
            "lng": 19.467,
            "OSNR": 28.86,
            "distance": "85*"
        },
        {
            "name": "Nuremberg",
            "lat": 49.45203,
            "lng": 11.07675,
            "OSNR": 31.3,
            "distance": 73.96
        },
        {
            "name": "Vienna",
            "lat": 48.20849,
            "lng": 16.37208,
            "OSNR": 36.22,
            "distance": 46.08
        },
        {
            "name": "Reims",
            "lat": 49.262798,
            "lng": 4.0347,
            "OSNR": 32.52,
            "distance": 68
        }
    ],
    "links": [
        {
            "id": "L1",
            "source": "Amsterdam",
            "target": "Brussels",
            "percentage": 46,
            "amplifiers": [
                "Rotterdam",
                "Antwerp",
                "Brussels"
            ]
        },
        {
            "id": "L2",
            "source": "Amsterdam",
            "target": "Glasgow",
            "percentage": 49,
            "amplifiers": [
                "Amsterdam",
                "Rotterdam",
                "Antwerp ",
                "Ghent ",
                "Bruges",
                "Calais",
                "Canterbury",
                "London",
                "Luton",
                "Leicester",
                "Nottingham",
                "Sheffield",
                "York",
                "Thirsk",
                "Newcastle upon Tyne",
                "Berwick-upon-Tweed",
                "Edinburgh"
            ]
        },
        {
            "id": "L3",
            "source": "Amsterdam",
            "target": "Hamburg",
            "percentage": 42,
            "amplifiers": [
                "Utrecht",
                "Apeldoorn",
                "Hengelo",
                "Nordhorn",
                "Osnabruck",
                "Diepholz",
                "Bremen",
                "Sittensen",
                "Hamburg"
            ]
        },
        {
            "id": "L4",
            "source": "Amsterdam",
            "target": "London",
            "percentage": 40,
            "amplifiers": [
                "Rotterdam",
                "Antwerp",
                "Brussels",
                "Ghent",
                "Lille",
                "Dunkirk",
                "Calais",
                "Canterbury",
                "Maidstone",
                "London"
            ]
        },
        {
            "id": "L5",
            "source": "Athens",
            "target": "Belgrade",
            "percentage": 36,
            "amplifiers": [
                "Athens",
                "Thiva",
                "Elatia",
                "Ekkara",
                "Kalambaka",
                "Livera",
                "Bitola",
                "Veles",
                "Samoljica",
                "Leskovac",
                "Krusevac",
                "Gornja Trnava"
            ]
        },
        {
            "id": "L6",
            "source": "Athens",
            "target": "Rome",
            "percentage": 80,
            "amplifiers": [
                "Athens",
                "Thiva",
                "Amfikleia",
                "Domokos",
                "Trikala",
                "Ioannina",
                "Libohove",
                "Orikum",
                "Lecce",
                "Villa Castelli",
                "Altamura",
                "Melfi",
                "Benevento",
                "Venafro",
                "Frosinone"
            ]
        },
        {
            "id": "L7",
            "source": "Barcelona",
            "target": "Lyon",
            "percentage": 33,
            "amplifiers": [
                "Gerona ",
                "Figueres",
                "Perpignan",
                "Narbonne",
                "Montpellier",
                "Nimes",
                "Montelimar",
                "Valence",
                "Vienna (France)",
                "Lyon"
            ]
        },
        {
            "id": "L8",
            "source": "Barcelona",
            "target": "Madrid",
            "percentage": 48,
            "amplifiers": [
                "Barcelona",
                "Cervera",
                "Lleida",
                "Fraga",
                "Monzon",
                "Zaragoza",
                "Tarazona",
                "Medinaceli",
                "Guadalajara"
            ]
        },
        {
            "id": "L9",
            "source": "Belgrade",
            "target": "Budapest",
            "percentage": 31,
            "amplifiers": [
                "Zrenjanin",
                "Kikinda",
                "Szeged",
                "Kecskemet",
                "Budapest"
            ]
        },
        {
            "id": "L10",
            "source": "Belgrade",
            "target": "Zagreb",
            "percentage": 46,
            "amplifiers": [
                "Belgrade",
                "Veliki-Radinci",
                "Ivankovo",
                "Pozega",
                "Kutina"
            ]
        },
        {
            "id": "L11",
            "source": "Berlin",
            "target": "Copenhagen",
            "percentage": 52,
            "amplifiers": [
                "Berlin",
                "Lindow",
                "Waren",
                "Rostock",
                "Marielyst",
                "Haslev"
            ]
        },
        {
            "id": "L12",
            "source": "Berlin",
            "target": "Hamburg",
            "percentage": 49,
            "amplifiers": [
                "Brandenburg-an-der-Havel",
                "Gardelegen",
                "Uelzen",
                "Hamburg"
            ]
        },
        {
            "id": "L13",
            "source": "Berlin",
            "target": "Munich",
            "percentage": 31,
            "amplifiers": [
                "Berlin",
                "Jessen",
                "Leipzig",
                "Eisenberg",
                "Saalfeld",
                "Lichtenfels",
                "Nurnberg",
                "Ingolstadt"
            ]
        },
        {
            "id": "L14",
            "source": "Berlin",
            "target": "Prague",
            "percentage": 45,
            "amplifiers": [
                "Berlin",
                "Wahlsdorf",
                "Riesa",
                "Teplice"
            ]
        },
        {
            "id": "L15",
            "source": "Berlin",
            "target": "Warsaw",
            "percentage": 32,
            "amplifiers": [
                "Jacobsdorf",
                "Lagow",
                "Buk",
                "Wrzesnia",
                "Powiercie",
                "Zlakow-Borowy",
                "Warsaw"
            ]
        },
        {
            "id": "L16",
            "source": "Bordeaux",
            "target": "Madrid",
            "percentage": 33,
            "amplifiers": [
                "Bordeaux",
                "Toulouse",
                "Bayonne",
                "Irun",
                "Pamplona",
                "Alsasua",
                "Vitoria-Gasteiz",
                "Burgos",
                "Aranda de Duero",
                "Segovia"
            ]
        },
        {
            "id": "L17",
            "source": "Bordeaux",
            "target": "Paris",
            "percentage": 45,
            "amplifiers": [
                "Saint-Emilion",
                "Angouleme",
                "Cognac",
                "Niort",
                "Poitiers",
                "Chatellerault",
                "Tours",
                "Blois",
                "Orleans",
                "Montargis",
                "Fontainebleau",
                "Paris"
            ]
        },
        {
            "id": "L18",
            "source": "Brussels",
            "target": "Frankfurt",
            "percentage": 52,
            "amplifiers": [
                "Brussels",
                "Leuven ",
                "Liege ",
                "Aachen",
                "Cologne",
                "Koblenz",
                "Limburg an der Lahn"
            ]
        },
        {
            "id": "L19",
            "source": "Brussels",
            "target": "Paris",
            "percentage": 26,
            "amplifiers": []
        },
        {
            "id": "L20",
            "source": "Budapest",
            "target": "Prague",
            "percentage": 60,
            "amplifiers": [
                "Budapest",
                "Gyor",
                "Bratislava",
                "Vienna",
                "Bezkov",
                "Jihlava",
                "Vlasim"
            ]
        },
        {
            "id": "L21",
            "source": "Budapest",
            "target": "Warsaw",
            "percentage": 52,
            "amplifiers": [
                "Budapest",
                "Vamosmikola",
                "Handlova",
                "Cadca",
                "Tychy",
                "Czestochowa",
                "Piotrkow-Trybunalski",
                "Skierniewice"
            ]
        },
        {
            "id": "L22",
            "source": "Copenhagen",
            "target": "Oslo",
            "percentage": 41,
            "amplifiers": [
                "Copenhagen",
                "Helsingborg",
                "Mellbystrand",
                "Atran",
                "Boras",
                "Lilla Edet",
                "Rabbalshede",
                "Sarpsborg"
            ]
        },
        {
            "id": "L23",
            "source": "Dublin",
            "target": "Glasgow",
            "percentage": 47,
            "amplifiers": []
        },
        {
            "id": "L24",
            "source": "Dublin",
            "target": "London",
            "percentage": 31,
            "amplifiers": []
        },
        {
            "id": "L25",
            "source": "Frankfurt",
            "target": "Hamburg",
            "percentage": 51,
            "amplifiers": [
                "Frankfurt am Main",
                "Gelnhausen",
                "Fulda",
                "Bad Hersfeld",
                "Kassel",
                "Gottingen",
                "Hildesheim",
                "Nienburg",
                "Bremen",
                "Rotenburg"
            ]
        },
        {
            "id": "L26",
            "source": "Frankfurt",
            "target": "Munich",
            "percentage": 53,
            "amplifiers": [
                "Aschaffenburg",
                "Kitzingen",
                "Nuremberg",
                "Ingolstadt",
                "Munich"
            ]
        },
        {
            "id": "L27",
            "source": "Frankfurt",
            "target": "Strasbourg",
            "percentage": 14,
            "amplifiers": [
                "Heidelberg",
                "Karlsruhe",
                "Strasbourg"
            ]
        },
        {
            "id": "L28",
            "source": "London",
            "target": "Paris",
            "percentage": 49,
            "amplifiers": []
        },
        {
            "id": "L29",
            "source": "Lyon",
            "target": "Paris",
            "percentage": 55,
            "amplifiers": [
                "Tarare",
                "Roanne",
                "Digoin",
                "Moulins",
                "Nevers",
                "Cosne-Cours-sur-Loire",
                "Gien",
                "Montargis",
                "Fontainebleau",
                "Paris"
            ]
        },
        {
            "id": "L30",
            "source": "Milan",
            "target": "Munich",
            "percentage": 38,
            "amplifiers": [
                "Milan",
                "Brescia",
                "Verona",
                "Rovereto",
                "Bolzano",
                "Innsbruck",
                "Kufstein"
            ]
        },
        {
            "id": "L31",
            "source": "Milan",
            "target": "Rome",
            "percentage": 23,
            "amplifiers": [
                "Piacenza",
                "Parma",
                "Bologna",
                "Firenze",
                "Siena",
                "Grosseto",
                "Tuscania",
                "Rome"
            ]
        },
        {
            "id": "L32",
            "source": "Milan",
            "target": "Zurich",
            "percentage": 44,
            "amplifiers": [
                "Lugano",
                "Airolo",
                "Altdorf",
                "Zurich"
            ]
        },
        {
            "id": "L33",
            "source": "Munich",
            "target": "Vienna",
            "percentage": 47,
            "amplifiers": [
                "Munich",
                "Waldkraiburg",
                "Altheim",
                "Linz",
                "Melk"
            ]
        },
        {
            "id": "L34",
            "source": "Oslo",
            "target": "Stockholm",
            "percentage": 36,
            "amplifiers": [
                "Oslo",
                "Mysen",
                "Arjang",
                "Karlstad",
                "Lannafors",
                "Valskog",
                "Enkoping"
            ]
        },
        {
            "id": "L35",
            "source": "Paris",
            "target": "Strasbourg",
            "percentage": 10,
            "amplifiers": [
                "Meaux",
                "Chateau-Thierry",
                "Reims",
                "Chalons-en-Champagne",
                "Saint-Dizier",
                "Bar-le-Duc",
                "Toul",
                "Nancy",
                "Luneville",
                "Sarrebourg",
                "Strasbourg"
            ]
        },
        {
            "id": "L36",
            "source": "Prague",
            "target": "Vienna",
            "percentage": 47,
            "amplifiers": [
                "Prague",
                "Vlasim",
                "Jihlava",
                "Bezkov"
            ]
        },
        {
            "id": "L37",
            "source": "Rome",
            "target": "Zagreb",
            "percentage": 34,
            "amplifiers": [
                "Viterbo",
                "Perugia",
                "Carpegna",
                "Ravenna",
                "Rovigo",
                "Venezia",
                "Umag",
                "Rijeka",
                "Pravutina",
                "Zagreb"
            ]
        },
        {
            "id": "L38",
            "source": "Stockholm",
            "target": "Warsaw",
            "percentage": 26,
            "amplifiers": [
                "Stockholm",
                "Edsbro",
                "Eckero",
                "Kumlinge",
                "Turku",
                "Sammatti",
                "Helsinki",
                "Tallinn",
                "Eidapere",
                "Halliste",
                "Valmiera",
                "Riga",
                "Bauska",
                "Panevezys",
                "Josvainiai",
                "Mokolai",
                "Raczki",
                "Lachowo",
                "Rozan"
            ]
        },
        {
            "id": "L39",
            "source": "Zurich",
            "target": "Lyon",
            "percentage": 56,
            "amplifiers": [
                "Zurich",
                "Zofingen",
                "Langenthal",
                "Friburgo",
                "Lausana ",
                "Nyon",
                "Annecy",
                "Cluses",
                "Ginebra "
            ]
        },
        {
            "id": "L40",
            "source": "Strasbourg",
            "target": "Zurich",
            "percentage": 40,
            "amplifiers": [
                "Strasbourg",
                "Colmar",
                "Basel"
            ]
        },
        {
            "id": "L41",
            "source": "Vienna",
            "target": "Zagreb",
            "percentage": 41,
            "amplifiers": [
                "Vienna",
                "Wiener Neustadt",
                "Pinkafeld",
                "Graz",
                "Maribor"
            ]
        }
    ],
    "demands": [
        {
            "id": "Demand_L1_511_522",
            "startNode": "Amsterdam",
            "endNode": "Brussels",
            "lambdas": [
                {
                    "startSlice": 511,
                    "endSlice": 522,
                    "path": {
                        "id": "PDemand_L1_511_522",
                        "linkIds": [
                            "L1"
                        ]
                    }
                }
            ]
        },
        {
            "id": "Demand_L1_339_370",
            "startNode": "Amsterdam",
            "endNode": "Brussels",
            "lambdas": [
                {
                    "startSlice": 339,
                    "endSlice": 370,
                    "path": {
                        "id": "PDemand_L1_339_370",
                        "linkIds": [
                            "L1"
                        ]
                    }
                }
            ]
        },
        {
            "id": "Demand_L1_69_140",
            "startNode": "Amsterdam",
            "endNode": "Brussels",
            "lambdas": [
                {
                    "startSlice": 69,
                    "endSlice": 140,
                    "path": {
                        "id": "PDemand_L1_69_140",
                        "linkIds": [
                            "L1"
                        ]
                    }
                }
            ]
        },
        {
            "id": "Demand_L1_542_557",
            "startNode": "Amsterdam",
            "endNode": "Brussels",
            "lambdas": [
                {
                    "startSlice": 542,
                    "endSlice": 557,
                    "path": {
                        "id": "PDemand_L1_542_557",
                        "linkIds": [
                            "L1"
                        ]
                    }
                }
            ]
        },
        {
            "id": "Demand_L1_646_697",
            "startNode": "Amsterdam",
            "endNode": "Brussels",
            "lambdas": [
                {
                    "startSlice": 646,
                    "endSlice": 697,
                    "path": {
                        "id": "PDemand_L1_646_697",
                        "linkIds": [
                            "L1"
                        ]
                    }
                }
            ]
        },
        {
            "id": "Demand_L1_400_479",
            "startNode": "Amsterdam",
            "endNode": "Brussels",
            "lambdas": [
                {
                    "startSlice": 400,
                    "endSlice": 479,
                    "path": {
                        "id": "PDemand_L1_400_479",
                        "linkIds": [
                            "L1"
                        ]
                    }
                }
            ]
        },
        {
            "id": "Demand_L1_191_218",
            "startNode": "Amsterdam",
            "endNode": "Brussels",
            "lambdas": [
                {
                    "startSlice": 191,
                    "endSlice": 218,
                    "path": {
                        "id": "PDemand_L1_191_218",
                        "linkIds": [
                            "L1"
                        ]
                    }
                }
            ]
        },
        {
            "id": "Demand_L1_272_315",
            "startNode": "Amsterdam",
            "endNode": "Brussels",
            "lambdas": [
                {
                    "startSlice": 272,
                    "endSlice": 315,
                    "path": {
                        "id": "PDemand_L1_272_315",
                        "linkIds": [
                            "L1"
                        ]
                    }
                }
            ]
        },
        {
            "id": "Demand_L1_601_612",
            "startNode": "Amsterdam",
            "endNode": "Brussels",
            "lambdas": [
                {
                    "startSlice": 601,
                    "endSlice": 612,
                    "path": {
                        "id": "PDemand_L1_601_612",
                        "linkIds": [
                            "L1"
                        ]
                    }
                }
            ]
        },
        {
            "id": "Demand_L1_26_29",
            "startNode": "Amsterdam",
            "endNode": "Brussels",
            "lambdas": [
                {
                    "startSlice": 26,
                    "endSlice": 29,
                    "path": {
                        "id": "PDemand_L1_26_29",
                        "linkIds": [
                            "L1"
                        ]
                    }
                }
            ]
        },
        {
            "id": "Demand_L2_330_357",
            "startNode": "Amsterdam",
            "endNode": "Glasgow",
            "lambdas": [
                {
                    "startSlice": 330,
                    "endSlice": 357,
                    "path": {
                        "id": "PDemand_L2_330_357",
                        "linkIds": [
                            "L2"
                        ]
                    }
                }
            ]
        },
        {
            "id": "Demand_L2_17_108",
            "startNode": "Amsterdam",
            "endNode": "Glasgow",
            "lambdas": [
                {
                    "startSlice": 17,
                    "endSlice": 108,
                    "path": {
                        "id": "PDemand_L2_17_108",
                        "linkIds": [
                            "L2"
                        ]
                    }
                }
            ]
        },
        {
            "id": "Demand_L2_532_551",
            "startNode": "Amsterdam",
            "endNode": "Glasgow",
            "lambdas": [
                {
                    "startSlice": 532,
                    "endSlice": 551,
                    "path": {
                        "id": "PDemand_L2_532_551",
                        "linkIds": [
                            "L2"
                        ]
                    }
                }
            ]
        },
        {
            "id": "Demand_L2_250_281",
            "startNode": "Amsterdam",
            "endNode": "Glasgow",
            "lambdas": [
                {
                    "startSlice": 250,
                    "endSlice": 281,
                    "path": {
                        "id": "PDemand_L2_250_281",
                        "linkIds": [
                            "L2"
                        ]
                    }
                }
            ]
        },
        {
            "id": "Demand_L2_414_485",
            "startNode": "Amsterdam",
            "endNode": "Glasgow",
            "lambdas": [
                {
                    "startSlice": 414,
                    "endSlice": 485,
                    "path": {
                        "id": "PDemand_L2_414_485",
                        "linkIds": [
                            "L2"
                        ]
                    }
                }
            ]
        },
        {
            "id": "Demand_L2_677_748",
            "startNode": "Amsterdam",
            "endNode": "Glasgow",
            "lambdas": [
                {
                    "startSlice": 677,
                    "endSlice": 748,
                    "path": {
                        "id": "PDemand_L2_677_748",
                        "linkIds": [
                            "L2"
                        ]
                    }
                }
            ]
        },
        {
            "id": "Demand_L2_618_657",
            "startNode": "Amsterdam",
            "endNode": "Glasgow",
            "lambdas": [
                {
                    "startSlice": 618,
                    "endSlice": 657,
                    "path": {
                        "id": "PDemand_L2_618_657",
                        "linkIds": [
                            "L2"
                        ]
                    }
                }
            ]
        },
        {
            "id": "Demand_L2_368_371",
            "startNode": "Amsterdam",
            "endNode": "Glasgow",
            "lambdas": [
                {
                    "startSlice": 368,
                    "endSlice": 371,
                    "path": {
                        "id": "PDemand_L2_368_371",
                        "linkIds": [
                            "L2"
                        ]
                    }
                }
            ]
        },
        {
            "id": "Demand_L2_194_205",
            "startNode": "Amsterdam",
            "endNode": "Glasgow",
            "lambdas": [
                {
                    "startSlice": 194,
                    "endSlice": 205,
                    "path": {
                        "id": "PDemand_L2_194_205",
                        "linkIds": [
                            "L2"
                        ]
                    }
                }
            ]
        },
        {
            "id": "Demand_L2_9_12",
            "startNode": "Amsterdam",
            "endNode": "Glasgow",
            "lambdas": [
                {
                    "startSlice": 9,
                    "endSlice": 12,
                    "path": {
                        "id": "PDemand_L2_9_12",
                        "linkIds": [
                            "L2"
                        ]
                    }
                }
            ]
        },
        {
            "id": "Demand_L3_11_30",
            "startNode": "Amsterdam",
            "endNode": "Hamburg",
            "lambdas": [
                {
                    "startSlice": 11,
                    "endSlice": 30,
                    "path": {
                        "id": "PDemand_L3_11_30",
                        "linkIds": [
                            "L3"
                        ]
                    }
                }
            ]
        },
        {
            "id": "Demand_L3_691_754",
            "startNode": "Amsterdam",
            "endNode": "Hamburg",
            "lambdas": [
                {
                    "startSlice": 691,
                    "endSlice": 754,
                    "path": {
                        "id": "PDemand_L3_691_754",
                        "linkIds": [
                            "L3"
                        ]
                    }
                }
            ]
        },
        {
            "id": "Demand_L3_575_578",
            "startNode": "Amsterdam",
            "endNode": "Hamburg",
            "lambdas": [
                {
                    "startSlice": 575,
                    "endSlice": 578,
                    "path": {
                        "id": "PDemand_L3_575_578",
                        "linkIds": [
                            "L3"
                        ]
                    }
                }
            ]
        },
        {
            "id": "Demand_L3_377_388",
            "startNode": "Amsterdam",
            "endNode": "Hamburg",
            "lambdas": [
                {
                    "startSlice": 377,
                    "endSlice": 388,
                    "path": {
                        "id": "PDemand_L3_377_388",
                        "linkIds": [
                            "L3"
                        ]
                    }
                }
            ]
        },
        {
            "id": "Demand_L3_612_615",
            "startNode": "Amsterdam",
            "endNode": "Hamburg",
            "lambdas": [
                {
                    "startSlice": 612,
                    "endSlice": 615,
                    "path": {
                        "id": "PDemand_L3_612_615",
                        "linkIds": [
                            "L3"
                        ]
                    }
                }
            ]
        },
        {
            "id": "Demand_L3_136_139",
            "startNode": "Amsterdam",
            "endNode": "Hamburg",
            "lambdas": [
                {
                    "startSlice": 136,
                    "endSlice": 139,
                    "path": {
                        "id": "PDemand_L3_136_139",
                        "linkIds": [
                            "L3"
                        ]
                    }
                }
            ]
        },
        {
            "id": "Demand_L3_248_263",
            "startNode": "Amsterdam",
            "endNode": "Hamburg",
            "lambdas": [
                {
                    "startSlice": 248,
                    "endSlice": 263,
                    "path": {
                        "id": "PDemand_L3_248_263",
                        "linkIds": [
                            "L3"
                        ]
                    }
                }
            ]
        },
        {
            "id": "Demand_L3_334_345",
            "startNode": "Amsterdam",
            "endNode": "Hamburg",
            "lambdas": [
                {
                    "startSlice": 334,
                    "endSlice": 345,
                    "path": {
                        "id": "PDemand_L3_334_345",
                        "linkIds": [
                            "L3"
                        ]
                    }
                }
            ]
        },
        {
            "id": "Demand_L3_306_309",
            "startNode": "Amsterdam",
            "endNode": "Hamburg",
            "lambdas": [
                {
                    "startSlice": 306,
                    "endSlice": 309,
                    "path": {
                        "id": "PDemand_L3_306_309",
                        "linkIds": [
                            "L3"
                        ]
                    }
                }
            ]
        },
        {
            "id": "Demand_L3_148_207",
            "startNode": "Amsterdam",
            "endNode": "Hamburg",
            "lambdas": [
                {
                    "startSlice": 148,
                    "endSlice": 207,
                    "path": {
                        "id": "PDemand_L3_148_207",
                        "linkIds": [
                            "L3"
                        ]
                    }
                }
            ]
        },
        {
            "id": "Demand_L3_480_559",
            "startNode": "Amsterdam",
            "endNode": "Hamburg",
            "lambdas": [
                {
                    "startSlice": 480,
                    "endSlice": 559,
                    "path": {
                        "id": "PDemand_L3_480_559",
                        "linkIds": [
                            "L3"
                        ]
                    }
                }
            ]
        },
        {
            "id": "Demand_L3_116_131",
            "startNode": "Amsterdam",
            "endNode": "Hamburg",
            "lambdas": [
                {
                    "startSlice": 116,
                    "endSlice": 131,
                    "path": {
                        "id": "PDemand_L3_116_131",
                        "linkIds": [
                            "L3"
                        ]
                    }
                }
            ]
        },
        {
            "id": "Demand_L3_585_604",
            "startNode": "Amsterdam",
            "endNode": "Hamburg",
            "lambdas": [
                {
                    "startSlice": 585,
                    "endSlice": 604,
                    "path": {
                        "id": "PDemand_L3_585_604",
                        "linkIds": [
                            "L3"
                        ]
                    }
                }
            ]
        },
        {
            "id": "Demand_L3_619_626",
            "startNode": "Amsterdam",
            "endNode": "Hamburg",
            "lambdas": [
                {
                    "startSlice": 619,
                    "endSlice": 626,
                    "path": {
                        "id": "PDemand_L3_619_626",
                        "linkIds": [
                            "L3"
                        ]
                    }
                }
            ]
        },
        {
            "id": "Demand_L4_456_515",
            "startNode": "Amsterdam",
            "endNode": "London",
            "lambdas": [
                {
                    "startSlice": 456,
                    "endSlice": 515,
                    "path": {
                        "id": "PDemand_L4_456_515",
                        "linkIds": [
                            "L4"
                        ]
                    }
                }
            ]
        },
        {
            "id": "Demand_L4_336_355",
            "startNode": "Amsterdam",
            "endNode": "London",
            "lambdas": [
                {
                    "startSlice": 336,
                    "endSlice": 355,
                    "path": {
                        "id": "PDemand_L4_336_355",
                        "linkIds": [
                            "L4"
                        ]
                    }
                }
            ]
        },
        {
            "id": "Demand_L4_40_75",
            "startNode": "Amsterdam",
            "endNode": "London",
            "lambdas": [
                {
                    "startSlice": 40,
                    "endSlice": 75,
                    "path": {
                        "id": "PDemand_L4_40_75",
                        "linkIds": [
                            "L4"
                        ]
                    }
                }
            ]
        },
        {
            "id": "Demand_L4_279_302",
            "startNode": "Amsterdam",
            "endNode": "London",
            "lambdas": [
                {
                    "startSlice": 279,
                    "endSlice": 302,
                    "path": {
                        "id": "PDemand_L4_279_302",
                        "linkIds": [
                            "L4"
                        ]
                    }
                }
            ]
        },
        {
            "id": "Demand_L4_225_232",
            "startNode": "Amsterdam",
            "endNode": "London",
            "lambdas": [
                {
                    "startSlice": 225,
                    "endSlice": 232,
                    "path": {
                        "id": "PDemand_L4_225_232",
                        "linkIds": [
                            "L4"
                        ]
                    }
                }
            ]
        },
        {
            "id": "Demand_L4_687_762",
            "startNode": "Amsterdam",
            "endNode": "London",
            "lambdas": [
                {
                    "startSlice": 687,
                    "endSlice": 762,
                    "path": {
                        "id": "PDemand_L4_687_762",
                        "linkIds": [
                            "L4"
                        ]
                    }
                }
            ]
        },
        {
            "id": "Demand_L4_95_154",
            "startNode": "Amsterdam",
            "endNode": "London",
            "lambdas": [
                {
                    "startSlice": 95,
                    "endSlice": 154,
                    "path": {
                        "id": "PDemand_L4_95_154",
                        "linkIds": [
                            "L4"
                        ]
                    }
                }
            ]
        },
        {
            "id": "Demand_L4_174_189",
            "startNode": "Amsterdam",
            "endNode": "London",
            "lambdas": [
                {
                    "startSlice": 174,
                    "endSlice": 189,
                    "path": {
                        "id": "PDemand_L4_174_189",
                        "linkIds": [
                            "L4"
                        ]
                    }
                }
            ]
        },
        {
            "id": "Demand_L4_578_585",
            "startNode": "Amsterdam",
            "endNode": "London",
            "lambdas": [
                {
                    "startSlice": 578,
                    "endSlice": 585,
                    "path": {
                        "id": "PDemand_L4_578_585",
                        "linkIds": [
                            "L4"
                        ]
                    }
                }
            ]
        },
        {
            "id": "Demand_L5_136_139",
            "startNode": "Athens",
            "endNode": "Belgrade",
            "lambdas": [
                {
                    "startSlice": 136,
                    "endSlice": 139,
                    "path": {
                        "id": "PDemand_L5_136_139",
                        "linkIds": [
                            "L5"
                        ]
                    }
                }
            ]
        },
        {
            "id": "Demand_L5_306_353",
            "startNode": "Athens",
            "endNode": "Belgrade",
            "lambdas": [
                {
                    "startSlice": 306,
                    "endSlice": 353,
                    "path": {
                        "id": "PDemand_L5_306_353",
                        "linkIds": [
                            "L5"
                        ]
                    }
                }
            ]
        },
        {
            "id": "Demand_L5_170_213",
            "startNode": "Athens",
            "endNode": "Belgrade",
            "lambdas": [
                {
                    "startSlice": 170,
                    "endSlice": 213,
                    "path": {
                        "id": "PDemand_L5_170_213",
                        "linkIds": [
                            "L5"
                        ]
                    }
                }
            ]
        },
        {
            "id": "Demand_L5_237_300",
            "startNode": "Athens",
            "endNode": "Belgrade",
            "lambdas": [
                {
                    "startSlice": 237,
                    "endSlice": 300,
                    "path": {
                        "id": "PDemand_L5_237_300",
                        "linkIds": [
                            "L5"
                        ]
                    }
                }
            ]
        },
        {
            "id": "Demand_L5_38_117",
            "startNode": "Athens",
            "endNode": "Belgrade",
            "lambdas": [
                {
                    "startSlice": 38,
                    "endSlice": 117,
                    "path": {
                        "id": "PDemand_L5_38_117",
                        "linkIds": [
                            "L5"
                        ]
                    }
                }
            ]
        },
        {
            "id": "Demand_L5_669_700",
            "startNode": "Athens",
            "endNode": "Belgrade",
            "lambdas": [
                {
                    "startSlice": 669,
                    "endSlice": 700,
                    "path": {
                        "id": "PDemand_L5_669_700",
                        "linkIds": [
                            "L5"
                        ]
                    }
                }
            ]
        },
        {
            "id": "Demand_L5_464_467",
            "startNode": "Athens",
            "endNode": "Belgrade",
            "lambdas": [
                {
                    "startSlice": 464,
                    "endSlice": 467,
                    "path": {
                        "id": "PDemand_L5_464_467",
                        "linkIds": [
                            "L5"
                        ]
                    }
                }
            ]
        },
        {
            "id": "Demand_L6_531_606",
            "startNode": "Athens",
            "endNode": "Rome",
            "lambdas": [
                {
                    "startSlice": 531,
                    "endSlice": 606,
                    "path": {
                        "id": "PDemand_L6_531_606",
                        "linkIds": [
                            "L6"
                        ]
                    }
                }
            ]
        },
        {
            "id": "Demand_L6_691_714",
            "startNode": "Athens",
            "endNode": "Rome",
            "lambdas": [
                {
                    "startSlice": 691,
                    "endSlice": 714,
                    "path": {
                        "id": "PDemand_L6_691_714",
                        "linkIds": [
                            "L6"
                        ]
                    }
                }
            ]
        },
        {
            "id": "Demand_L6_393_484",
            "startNode": "Athens",
            "endNode": "Rome",
            "lambdas": [
                {
                    "startSlice": 393,
                    "endSlice": 484,
                    "path": {
                        "id": "PDemand_L6_393_484",
                        "linkIds": [
                            "L6"
                        ]
                    }
                }
            ]
        },
        {
            "id": "Demand_L6_38_65",
            "startNode": "Athens",
            "endNode": "Rome",
            "lambdas": [
                {
                    "startSlice": 38,
                    "endSlice": 65,
                    "path": {
                        "id": "PDemand_L6_38_65",
                        "linkIds": [
                            "L6"
                        ]
                    }
                }
            ]
        },
        {
            "id": "Demand_L6_336_383",
            "startNode": "Athens",
            "endNode": "Rome",
            "lambdas": [
                {
                    "startSlice": 336,
                    "endSlice": 383,
                    "path": {
                        "id": "PDemand_L6_336_383",
                        "linkIds": [
                            "L6"
                        ]
                    }
                }
            ]
        },
        {
            "id": "Demand_L6_162_197",
            "startNode": "Athens",
            "endNode": "Rome",
            "lambdas": [
                {
                    "startSlice": 162,
                    "endSlice": 197,
                    "path": {
                        "id": "PDemand_L6_162_197",
                        "linkIds": [
                            "L6"
                        ]
                    }
                }
            ]
        },
        {
            "id": "Demand_L6_226_233",
            "startNode": "Athens",
            "endNode": "Rome",
            "lambdas": [
                {
                    "startSlice": 226,
                    "endSlice": 233,
                    "path": {
                        "id": "PDemand_L6_226_233",
                        "linkIds": [
                            "L6"
                        ]
                    }
                }
            ]
        },
        {
            "id": "Demand_L6_253_328",
            "startNode": "Athens",
            "endNode": "Rome",
            "lambdas": [
                {
                    "startSlice": 253,
                    "endSlice": 328,
                    "path": {
                        "id": "PDemand_L6_253_328",
                        "linkIds": [
                            "L6"
                        ]
                    }
                }
            ]
        },
        {
            "id": "Demand_L6_490_513",
            "startNode": "Athens",
            "endNode": "Rome",
            "lambdas": [
                {
                    "startSlice": 490,
                    "endSlice": 513,
                    "path": {
                        "id": "PDemand_L6_490_513",
                        "linkIds": [
                            "L6"
                        ]
                    }
                }
            ]
        },
        {
            "id": "Demand_L6_0_31",
            "startNode": "Athens",
            "endNode": "Rome",
            "lambdas": [
                {
                    "startSlice": 0,
                    "endSlice": 31,
                    "path": {
                        "id": "PDemand_L6_0_31",
                        "linkIds": [
                            "L6"
                        ]
                    }
                }
            ]
        },
        {
            "id": "Demand_L6_88_155",
            "startNode": "Athens",
            "endNode": "Rome",
            "lambdas": [
                {
                    "startSlice": 88,
                    "endSlice": 155,
                    "path": {
                        "id": "PDemand_L6_88_155",
                        "linkIds": [
                            "L6"
                        ]
                    }
                }
            ]
        },
        {
            "id": "Demand_L6_612_683",
            "startNode": "Athens",
            "endNode": "Rome",
            "lambdas": [
                {
                    "startSlice": 612,
                    "endSlice": 683,
                    "path": {
                        "id": "PDemand_L6_612_683",
                        "linkIds": [
                            "L6"
                        ]
                    }
                }
            ]
        },
        {
            "id": "Demand_L6_756_763",
            "startNode": "Athens",
            "endNode": "Rome",
            "lambdas": [
                {
                    "startSlice": 756,
                    "endSlice": 763,
                    "path": {
                        "id": "PDemand_L6_756_763",
                        "linkIds": [
                            "L6"
                        ]
                    }
                }
            ]
        },
        {
            "id": "Demand_L6_206_217",
            "startNode": "Athens",
            "endNode": "Rome",
            "lambdas": [
                {
                    "startSlice": 206,
                    "endSlice": 217,
                    "path": {
                        "id": "PDemand_L6_206_217",
                        "linkIds": [
                            "L6"
                        ]
                    }
                }
            ]
        },
        {
            "id": "Demand_L6_728_739",
            "startNode": "Athens",
            "endNode": "Rome",
            "lambdas": [
                {
                    "startSlice": 728,
                    "endSlice": 739,
                    "path": {
                        "id": "PDemand_L6_728_739",
                        "linkIds": [
                            "L6"
                        ]
                    }
                }
            ]
        },
        {
            "id": "Demand_L7_337_380",
            "startNode": "Barcelona",
            "endNode": "Lyon",
            "lambdas": [
                {
                    "startSlice": 337,
                    "endSlice": 380,
                    "path": {
                        "id": "PDemand_L7_337_380",
                        "linkIds": [
                            "L7"
                        ]
                    }
                }
            ]
        },
        {
            "id": "Demand_L7_592_655",
            "startNode": "Barcelona",
            "endNode": "Lyon",
            "lambdas": [
                {
                    "startSlice": 592,
                    "endSlice": 655,
                    "path": {
                        "id": "PDemand_L7_592_655",
                        "linkIds": [
                            "L7"
                        ]
                    }
                }
            ]
        },
        {
            "id": "Demand_L7_164_183",
            "startNode": "Barcelona",
            "endNode": "Lyon",
            "lambdas": [
                {
                    "startSlice": 164,
                    "endSlice": 183,
                    "path": {
                        "id": "PDemand_L7_164_183",
                        "linkIds": [
                            "L7"
                        ]
                    }
                }
            ]
        },
        {
            "id": "Demand_L7_27_34",
            "startNode": "Barcelona",
            "endNode": "Lyon",
            "lambdas": [
                {
                    "startSlice": 27,
                    "endSlice": 34,
                    "path": {
                        "id": "PDemand_L7_27_34",
                        "linkIds": [
                            "L7"
                        ]
                    }
                }
            ]
        },
        {
            "id": "Demand_L7_449_480",
            "startNode": "Barcelona",
            "endNode": "Lyon",
            "lambdas": [
                {
                    "startSlice": 449,
                    "endSlice": 480,
                    "path": {
                        "id": "PDemand_L7_449_480",
                        "linkIds": [
                            "L7"
                        ]
                    }
                }
            ]
        },
        {
            "id": "Demand_L7_728_767",
            "startNode": "Barcelona",
            "endNode": "Lyon",
            "lambdas": [
                {
                    "startSlice": 728,
                    "endSlice": 767,
                    "path": {
                        "id": "PDemand_L7_728_767",
                        "linkIds": [
                            "L7"
                        ]
                    }
                }
            ]
        },
        {
            "id": "Demand_L7_47_90",
            "startNode": "Barcelona",
            "endNode": "Lyon",
            "lambdas": [
                {
                    "startSlice": 47,
                    "endSlice": 90,
                    "path": {
                        "id": "PDemand_L7_47_90",
                        "linkIds": [
                            "L7"
                        ]
                    }
                }
            ]
        },
        {
            "id": "Demand_L8_108_191",
            "startNode": "Barcelona",
            "endNode": "Madrid",
            "lambdas": [
                {
                    "startSlice": 108,
                    "endSlice": 191,
                    "path": {
                        "id": "PDemand_L8_108_191",
                        "linkIds": [
                            "L8"
                        ]
                    }
                }
            ]
        },
        {
            "id": "Demand_L8_341_376",
            "startNode": "Barcelona",
            "endNode": "Madrid",
            "lambdas": [
                {
                    "startSlice": 341,
                    "endSlice": 376,
                    "path": {
                        "id": "PDemand_L8_341_376",
                        "linkIds": [
                            "L8"
                        ]
                    }
                }
            ]
        },
        {
            "id": "Demand_L8_575_602",
            "startNode": "Barcelona",
            "endNode": "Madrid",
            "lambdas": [
                {
                    "startSlice": 575,
                    "endSlice": 602,
                    "path": {
                        "id": "PDemand_L8_575_602",
                        "linkIds": [
                            "L8"
                        ]
                    }
                }
            ]
        },
        {
            "id": "Demand_L8_620_707",
            "startNode": "Barcelona",
            "endNode": "Madrid",
            "lambdas": [
                {
                    "startSlice": 620,
                    "endSlice": 707,
                    "path": {
                        "id": "PDemand_L8_620_707",
                        "linkIds": [
                            "L8"
                        ]
                    }
                }
            ]
        },